[
  {
    "Name": "location 1",
    "Address": "AH Frieswijkstraat 72, Nijkerk",
    "Latitude": "52.2165425",
    "Longitude": "5.4778534"
  },
  {
    "Name": "location 2",
    "Address": "Belemnieterf",
    "Latitude": "50.91414",
    "Longitude": "5.95549"
  },
  {
    "Name": "location 3",
    "Address": "AH  Stationsplein 7, Hilversum",
    "Latitude": "52.22667",
    "Longitude": "5.1811"
  },
  {
    "Name": "location 4",
    "Address": "De Brooodzaak; Stationsplein 1, 2011 LR Haarlem",
    "Latitude": "52.3878359",
    "Longitude": "4.6371779"
  },
  {
    "Name": "location 5",
    "Address": "McDonald's; Promenade 30, Zoetermeer",
    "Latitude": "52.0611478",
    "Longitude": "4.4875588"
  },
  {
    "Name": "location 6",
    "Address": "EM-TE, PANNENSCHUURPLEIN 32-40, 5061WP, OISTERWIJK",
    "Latitude": "51.5829768",
    "Longitude": "5.1764954"
  },
  {
    "Name": "location 7",
    "Address": "Tesco: Banbury Rd 47, CV37, Stratford-upon-Avon, United Kingdom",
    "Latitude": "52.187709",
    "Longitude": "-1.692691"
  },
  {
    "Name": "location 8",
    "Address": "Kop van Het Ruim 1, Dronten",
    "Latitude": "52.5259673",
    "Longitude": "5.719307"
  },
  {
    "Name": "location 9",
    "Address": "Nederland ASSEN - Rondgang 20",
    "Latitude": "53.0001983",
    "Longitude": "6.5146841"
  },
  {
    "Name": "location 10",
    "Address": "C1000; Pettelaarseweg 375-377, Den Bosch",
    "Latitude": "51.6798806",
    "Longitude": "5.3170226"
  },
  {
    "Name": "location 11",
    "Address": "Heermoesstraat, Arnhem",
    "Latitude": "51.964345",
    "Longitude": "5.8989"
  },
  {
    "Name": "location 12",
    "Address": "Tesco: High St 82, DE11, United Kingdom",
    "Latitude": "52.76725",
    "Longitude": "-1.53142"
  },
  {
    "Name": "location 13",
    "Address": "Febo; Langestraat 50-A, 7511 HC Enschede",
    "Latitude": "52.2198788",
    "Longitude": "6.8959664"
  },
  {
    "Name": "location 14",
    "Address": "Kruidvat:  STEENSTRAAT 71, BOXMEER",
    "Latitude": "51.647715",
    "Longitude": "5.9502954"
  },
  {
    "Name": "location 15",
    "Address": "H&M: 40-42 Southgate Street Southgate St BA1 1TG Bath",
    "Latitude": "",
    "Longitude": ""
  },
  {
    "Name": "location 16",
    "Address": "JUMBO, SCHAKELPLEIN 16, 5408AW, VOLKEL",
    "Latitude": "",
    "Longitude": ""
  },
  {
    "Name": "location 17",
    "Address": "Esso de Potde; Maasbreeseweg 29, 5981NZ Panningen",
    "Latitude": "",
    "Longitude": ""
  },
  {
    "Name": "location 18",
    "Address": "Dekamarkt; Blokhuis 47, Lisse",
    "Latitude": "52.2607102",
    "Longitude": ""
  },
  {
    "Name": "location 19",
    "Address": "The  Read Shop Smilde; Veenhoopseweg 20A2, 9422AB Smilde",
    "Latitude": "",
    "Longitude": ""
  }
]